[
  {
    "atmId": 1,
    "city": "Ankara",
    "district": "Altındağ",
    "address": "Anafartalar Mah. Atatürk Bulv. 5/A-1 Ulus / Ankara",
    "name": "Akbank Ankara Şubesi",
    "latitude": 39.940998,
    "longitude": 32.854924,
    "unitCode": 5,
    "quarter": "Anafartalar",
    "provinceCode": 6
  },
  {
    "atmId": 2,
    "city": "Ankara",
    "district": "Altındağ",
    "address": "Çevreli Cad. Dik Sok. No:2 Altındağ",
    "name": "Akbank Aydınlıkevler Şubesi",
    "latitude": 39.96365,
    "longitude": 32.875037,
    "unitCode": 151,
    "quarter": "Anafartalar",
    "provinceCode": 6
  },
  {
    "atmId": 3,
    "city": "Ankara",
    "district": "Altındağ",
    "address": "Oguzlar Mah. Ulucanlar Cd. No:33/C Altındağ",
    "name": "Akbank Ulucanlar Şubesi",
    "latitude": 39.936614,
    "longitude": 32.865411,
    "unitCode": 30,
    "quarter": "Anafartalar",
    "provinceCode": 6
  },
  {
    "atmId": 4,
    "city": "Ankara",
    "district": "Altındağ",
    "address": "Demirhendek Cd. No:77 Altındağ",
    "name": "Akbank Siteler Şubesi",
    "latitude": 39.957585,
    "longitude": 32.898613,
    "unitCode": 401,
    "quarter": "Demirhendek",
    "provinceCode": 6
  },
  {
    "atmId": 5,
    "city": "Ankara",
    "district": "Altındağ",
    "address": "Siteler Ereğli Sok. No:22 Altındağ",
    "name": "Akbank 2. Siteler Şubesi",
    "latitude": 39.958491,
    "longitude": 32.906765,
    "unitCode": 696,
    "quarter": "Siteler",
    "provinceCode": 6
  },
  {
    "atmId": 6,
    "city": "Ankara",
    "district": "Altındağ",
    "address": "Kazım Karabekir Cad. 91 Nolu İş Merkezi No:22-23 Altındağ",
    "name": "Akbank Kazım Karabekir Şubesi",
    "latitude": 39.950081,
    "longitude": 32.853088,
    "unitCode": 311,
    "quarter": "Kazım Karabekir",
    "provinceCode": 6
  },
  {
    "atmId": 7,
    "city": "Ankara",
    "district": "Beypazarı",
    "address": "İrfan Gümüşel Cad. No:47 Beypazarı",
    "name": "Akbank Beypazarı Şubesi",
    "latitude": 40.168778,
    "longitude": 31.949088,
    "unitCode": 482,
    "quarter": "İrfan Gümüşel",
    "provinceCode": 6
  },
  {
    "atmId": 8,
    "city": "Ankara",
    "district": "Çankaya",
    "address": "Güvenlik Cd. No:77 Aşağıayrancı/Ankara",
    "name": "Akbank Aşağı Ayrancı Şubesi",
    "latitude": 39.902251,
    "longitude": 32.855868,
    "unitCode": 289,
    "quarter": "Aşağı Ayrancı",
    "provinceCode": 6
  },
  {
    "atmId": 9,
    "city": "Ankara",
    "district": "Çankaya",
    "address": "Aşkabat Cd. N:23/A Çankaya",
    "name": "Akbank Bahçelievler Şubesi",
    "latitude": 39.922878,
    "longitude": 32.82814,
    "unitCode": 96,
    "quarter": "Bahçelievler",
    "provinceCode": 6
  },
  {
    "atmId": 10,
    "city": "Ankara",
    "district": "Çankaya",
    "address": "Atatürk Bul. No:147 Çankaya",
    "name": "Akbank Bakanlıklar Şubesi",
    "latitude": 39.915106720288534,
    "longitude": 32.85588213506959,
    "unitCode": 153,
    "quarter": "Bakanlıklar",
    "provinceCode": 6
  },
  {
    "atmId": 11,
    "city": "Ankara",
    "district": "Çankaya",
    "address": "Güzeltepe Mh. Hoşdere Cd. No:197/A Çankaya",
    "name": "Akbank Çankaya Şubesi",
    "latitude": 39.88526586090225,
    "longitude": 32.85401488218339,
    "unitCode": 305,
    "quarter": "Hoşdere",
    "provinceCode": 6
  },
  {
    "atmId": 12,
    "city": "Ankara",
    "district": "Çankaya",
    "address": "Dikmen Cd. No:304/5 Çankaya/Ankara",
    "name": "Akbank Dikmen Şubesi",
    "latitude": 39.87800527670021,
    "longitude": 32.84282393987214,
    "unitCode": 345,
    "quarter": "Dikmen",
    "provinceCode": 6
  },
  {
    "atmId": 13,
    "city": "Ankara",
    "district": "Çankaya",
    "address": "Tunalıhilmi Cd. No:102/A Çankaya",
    "name": "Akbank Kavaklıdere Şubesi",
    "latitude": 39.90464005129053,
    "longitude": 32.86321701012356,
    "unitCode": 116,
    "quarter": "Kavaklıdere",
    "provinceCode": 6
  },
  {
    "atmId": 14,
    "city": "Ankara",
    "district": "Çankaya",
    "address": "Gazi M. Kemal Bulvarı No:5 Çankaya",
    "name": "Akbank Kızılay Şubesi",
    "latitude": 39.920919490848036,
    "longitude": 32.852864366932636,
    "unitCode": 356,
    "quarter": "Kızılay",
    "provinceCode": 6
  },
  {
    "atmId": 15,
    "city": "Ankara",
    "district": "Çankaya",
    "address": "Esat Cd. No:72/21 Çankaya",
    "name": "Akbank Küçükesat Şubesi",
    "latitude": 39.909893347108024,
    "longitude": 32.865160988488974,
    "unitCode": 101,
    "quarter": "Küçükesat",
    "provinceCode": 6
  },
  {
    "atmId": 16,
    "city": "Ankara",
    "district": "Çankaya",
    "address": "Gazi M. Kemal Bulv. No:95/A Çankaya",
    "name": "Akbank Maltepe Şubesi",
    "latitude": 39.93159303196055,
    "longitude": 32.84518955836806,
    "unitCode": 112,
    "quarter": "Maltepe",
    "provinceCode": 6
  },
  {
    "atmId": 17,
    "city": "Ankara",
    "district": "Çankaya",
    "address": "Fidanlık Mah. Mithatpaşa Cad. No:29 Çankaya/Ankara",
    "name": "Akbank Mithatpaşa Şubesi",
    "latitude": 39.923373328295014,
    "longitude": 32.859503726578254,
    "unitCode": 354,
    "quarter": "Mithatpaşa",
    "provinceCode": 6
  },
  {
    "atmId": 18,
    "city": "Ankara",
    "district": "Çankaya",
    "address": "Necatibey Cd. No:36/A Çankaya",
    "name": "Akbank Necatibey Caddesi Şubesi",
    "latitude": 39.92551990959091,
    "longitude": 32.85569883232467,
    "unitCode": 241,
    "quarter": "Necatibey",
    "provinceCode": 6
  },
  {
    "atmId": 19,
    "city": "Ankara",
    "district": "Çankaya",
    "address": "Filistin Caddesi No:4 Gaziosmanpaşa Çankaya, Ankara",
    "name": "Akbank Nenehatun Şubesi",
    "latitude": 39.89785835588834,
    "longitude": 32.8707174942269,
    "unitCode": 283,
    "quarter": "Gaziosmanpaşa",
    "provinceCode": 6
  },
  {
    "atmId": 20,
    "city": "Ankara",
    "district": "Çankaya",
    "address": "Degaulle Cd. No:9 Çankaya",
    "name": "Akbank Tandoğan Şubesi",
    "latitude": 39.93530801719475,
    "longitude": 32.83687214987377,
    "unitCode": 395,
    "quarter": "Tandoğan",
    "provinceCode": 6
  },
  {
    "atmId": 21,
    "city": "Ankara",
    "district": "Çankaya",
    "address": "Atatürk Bulvarı No:68/A Çankaya",
    "name": "Akbank Ankara Yenişehir Şubesi",
    "latitude": 39.9242669538938,
    "longitude": 32.856730702739775,
    "unitCode": 64,
    "quarter": "Yenişehir",
    "provinceCode": 6
  },
  {
    "atmId": 22,
    "city": "Ankara",
    "district": "Çankaya",
    "address": "Bişkek Cad. No:159/A Çankaya",
    "name": "Akbank Emek Şubesi",
    "latitude": 39.9210925080098,
    "longitude": 32.82010464136862,
    "unitCode": 172,
    "quarter": "Emek",
    "provinceCode": 6
  },
  {
    "atmId": 23,
    "city": "Ankara",
    "district": "Çankaya",
    "address": "Hoşdere Mah. No:197 A Çankaya Ankara",
    "name": "Akbank Çankaya Ticari Şubesi",
    "latitude": 39.88522012637302,
    "longitude": 32.85580654929308,
    "unitCode": 864,
    "quarter": "Hoşdere",
    "provinceCode": 6
  },
  {
    "atmId": 24,
    "city": "Ankara",
    "district": "Çankaya",
    "address": "Gaziosmanpaşa Mah. Arjantin Cad. No:44 Çankaya",
    "name": "Akbank Özel Bankacılık Ankara Şubesi",
    "latitude": 39.897928426953094,
    "longitude": 32.86898494080396,
    "unitCode": 752,
    "quarter": "Gaziosmanpaşa",
    "provinceCode": 6
  },
  {
    "atmId": 25,
    "city": "Ankara",
    "district": "Çankaya",
    "address": "Bilkent Plaza Ankuva Çarşısı No:6-7 Çankaya",
    "name": "Akbank Bilkent Şubesi",
    "latitude": 39.887265242889356,
    "longitude": 32.75791168648967,
    "unitCode": 667,
    "quarter": "Bilkent",
    "provinceCode": 6
  },
  {
    "atmId": 26,
    "city": "Ankara",
    "district": "Çankaya",
    "address": "Uğur Mumcu Cd. No:27 Gaziosmanpaşa Çankaya / Ankara",
    "name": "Akbank Gaziosmanpaşa Şubesi",
    "latitude": 39.89146172812575,
    "longitude": 32.87351750296178,
    "unitCode": 663,
    "quarter": "Gaziosmanpaşa",
    "provinceCode": 6
  },
  {
    "atmId": 27,
    "city": "Ankara",
    "district": "Çankaya",
    "address": "Ehlibeyt Mah. Ceyhun Atıf Kansu Cad. Ata Plaza No:100/V Balgat Ankara",
    "name": "Akbank Balgat Şubesi",
    "latitude": 39.89700721465743,
    "longitude": 32.81849262656175,
    "unitCode": 646,
    "quarter": "Balgat",
    "provinceCode": 6
  },
  {
    "atmId": 28,
    "city": "Ankara",
    "district": "Çankaya",
    "address": "Turan Güneş Bulvarı No:52/B Çankaya Ankara",
    "name": "Akbank Yıldız Şubesi",
    "latitude": 39.87197435878034,
    "longitude": 32.86174415038525,
    "unitCode": 658,
    "quarter": "Yıldız",
    "provinceCode": 6
  },
  {
    "atmId": 29,
    "city": "Ankara",
    "district": "Çankaya",
    "address": "Üniversiteler Mah. ODTÜ Kampüsü Yeni Avm2 No:3 Çankaya-Ankara",
    "name": "Akbank ODTÜ Şubesi",
    "latitude": 39.892790288304354,
    "longitude": 32.78769969410264,
    "unitCode": 656,
    "quarter": "Üniversiteler",
    "provinceCode": 6
  },
  {
    "atmId": 30,
    "city": "Ankara",
    "district": "Çankaya",
    "address": "Kızılırmak Mah. 41. Cad. Selin Sitesi No:1/38 Çukurambar Çankaya Ankara",
    "name": "Akbank Çukurambar Şubesi",
    "latitude": 39.90180380315941,
    "longitude": 32.81032465779962,
    "unitCode": 1187,
    "quarter": "Çukurambar",
    "provinceCode": 6
  },
  {
    "atmId": 31,
    "city": "Ankara",
    "district": "Çubuk",
    "address": "Yavuz Selim Mah. Hükümet Cad. No:6 Çubuk",
    "name": "Akbank Çubuk Şubesi",
    "latitude": 40.23989497262642,
    "longitude": 33.02982478239779,
    "unitCode": 312,
    "quarter": "Yavuz Selim",
    "provinceCode": 6
  },
  {
    "atmId": 32,
    "city": "Ankara",
    "district": "Elmadağ",
    "address": "Kemalpaşa Mah. Cumhuriyet Cad. No:1/1-2 Elmadağ Ankara",
    "name": "Akbank Elmadağ Şubesi",
    "latitude": 39.942568025079474,
    "longitude": 33.230190926192925,
    "unitCode": 495,
    "quarter": "Kemalpaşa",
    "provinceCode": 6
  },
  {
    "atmId": 33,
    "city": "Ankara",
    "district": "Etimesgut",
    "address": "Hikmet Özer Caddesi No:21-21/A Etimesgut / Ankara",
    "name": "Akbank Etimesgut Şubesi",
    "latitude": 39.946727263490274,
    "longitude": 32.665261132337605,
    "unitCode": 567,
    "quarter": "Etimesgut",
    "provinceCode": 6
  },
  {
    "atmId": 34,
    "city": "Ankara",
    "district": "Etimesgut",
    "address": "Altay Mah. Orhan Bey Cad. No:1/114 Etimesgut / Ankara",
    "name": "Akbank Eryaman Şubesi",
    "latitude": 39.967846238431115,
    "longitude": 32.63854624635193,
    "unitCode": 661,
    "quarter": "Altay",
    "provinceCode": 6
  },
  {
    "atmId": 35,
    "city": "Ankara",
    "district": "Etimesgut",
    "address": "Topçu, Şehit Murat Üçöz Cd No:57 Etimesgut/Ankara",
    "name": "Akbank Elvankent Şubesi",
    "latitude": 39.952000912227284,
    "longitude": 32.61035368442059,
    "unitCode": 1082,
    "quarter": "Elvankent",
    "provinceCode": 6
  },
  {
    "atmId": 36,
    "city": "Ankara",
    "district": "Etimesgut",
    "address": "Göksu Mah. 5352 Cad. No:1F/2 Etimesgut Ankara",
    "name": "Akbank Göksu Eryaman Şubesi",
    "latitude": 39.98998596485513,
    "longitude": 32.64509662716939,
    "unitCode": 335,
    "quarter": "Göksu",
    "provinceCode": 6
  },
  {
    "atmId": 37,
    "city": "Ankara",
    "district": "Etimesgut",
    "address": "Bahçekapı Mah. Şaşmaz Oto San. Sit. Sanayi Bul. No:7/B Etimesgut / Ankara",
    "name": "Akbank Şaşmaz Şubesi",
    "latitude": 39.94272210587561,
    "longitude": 32.71606951014711,
    "unitCode": 1190,
    "quarter": "Bahçekapı",
    "provinceCode": 6
  },
  {
    "atmId": 38,
    "city": "Ankara",
    "district": "Gölbaşı",
    "address": "Bahçelıevler Mah. Ankara Cad. No:93A Gölbaşı Ankara",
    "name": "Akbank Gölbaşı Şubesi",
    "latitude": 39.79169744754138,
    "longitude": 32.80950808731602,
    "unitCode": 730,
    "quarter": "Bahçelıevler",
    "provinceCode": 6
  },
  {
    "atmId": 39,
    "city": "Ankara",
    "district": "Kahramankazan",
    "address": "Fethiye Mh. Havacılık Bul. Tai Çarşısı İçi No:Z/13 Akıncı / Kazan 06980 Ankara",
    "name": "Akbank TAİ Şubesi",
    "latitude": 40.081740232627865,
    "longitude": 32.587877866957385,
    "unitCode": 681,
    "quarter": "Fethiye",
    "provinceCode": 6
  },
  {
    "atmId": 40,
    "city": "Ankara",
    "district": "Kahramankazan",
    "address": "Atatürk Mh, Gazi Mustafa Kemal Blv. No:7/A, 06980 Kahramankazan/Ankara",
    "name": "Akbank Kahramankazan Şubesi",
    "latitude": 40.20467769135016,
    "longitude": 32.68130627506168,
    "unitCode": 1094,
    "quarter": "Atatürk",
    "provinceCode": 6
  },
  {
    "atmId": 41,
    "city": "Ankara",
    "district": "Keçiören",
    "address": "Yavrukurt Sk. No:1 Keçiören",
    "name": "Akbank Etlik Şubesi",
    "latitude": 39.973486219491576,
    "longitude": 32.84378671879041,
    "unitCode": 402,
    "quarter": "Etlik",
    "provinceCode": 6
  },
  {
    "atmId": 42,
    "city": "Ankara",
    "district": "Keçiören",
    "address": "Sanatoryum Cd. No:85/B Keçiören",
    "name": "Akbank Kalaba Şubesi",
    "latitude": 39.979453080370995,
    "longitude": 32.859689395081325,
    "unitCode": 544,
    "quarter": "Kalaba",
    "provinceCode": 6
  },
  {
    "atmId": 43,
    "city": "Ankara",
    "district": "Mamak",
    "address": "Mamak Caddesi No:3/A Dikimevi/Ankara",
    "name": "Akbank Cebeci Şubesi",
    "latitude": 39.934110854105064,
    "longitude": 32.87996938860149,
    "unitCode": 17,
    "quarter": "Cebeci",
    "provinceCode": 6
  },
  {
    "atmId": 44,
    "city": "Ankara",
    "district": "Mamak",
    "address": "Çarşı İçi Cad. No:12 Mamak",
    "name": "Akbank Mamak Şubesi",
    "latitude": 39.93638912491326,
    "longitude": 32.91697724656761,
    "unitCode": 179,
    "quarter": "Mamak",
    "provinceCode": 6
  },
  {
    "atmId": 45,
    "city": "Ankara",
    "district": "Polatlı",
    "address": "Sivrihisar Cad. No:27/C Polatlı 06901",
    "name": "Akbank Polatlı Şubesi",
    "latitude": 39.584205739139094,
    "longitude": 32.14713437979278,
    "unitCode": 14,
    "quarter": "Polatlı",
    "provinceCode": 6
  },
  {
    "atmId": 46,
    "city": "Ankara",
    "district": "Sincan",
    "address": "Ankara Cad. Meltem Sok. No:5 Sincan/Ankara",
    "name": "Akbank Sincan Şubesi",
    "latitude": 39.96534088231473,
    "longitude": 32.58124308112728,
    "unitCode": 139,
    "quarter": "Sincan",
    "provinceCode": 6
  },
  {
    "atmId": 47,
    "city": "Ankara",
    "district": "Sincan",
    "address": "Aso 1. Organize Sanayi Böl. Aso Bulvarı No:1/Z 04 Zemin Kat Sincan Ankara",
    "name": "Akbank Ankara Organize Sanayi Bölgesi Şubesi",
    "latitude": 39.98139554383877,
    "longitude": 32.55770918060161,
    "unitCode": 1245,
    "quarter": "Aso 1. Organize Sanayi Bölgesi",
    "provinceCode": 6
  },
  {
    "atmId": 48,
    "city": "Ankara",
    "district": "Yenimahalle",
    "address": "İvedik Cd. No:434 Yenimahalle",
    "name": "Akbank Demetevler Şubesi",
    "latitude": 39.96848161864499,
    "longitude": 32.79231508057912,
    "unitCode": 323,
    "quarter": "Demetevler",
    "provinceCode": 6
  },
  {
    "atmId": 49,
    "city": "Ankara",
    "district": "Yenimahalle",
    "address": "100. Yıl Bulvarı No:47 Yenimahalle",
    "name": "Akbank Ostim Sanayi Sitesi Şubesi",
    "latitude": 39.96856441344122,
    "longitude": 32.74811999537094,
    "unitCode": 603,
    "quarter": "Ostim",
    "provinceCode": 6
  },
  {
    "atmId": 50,
    "city": "Ankara",
    "district": "Yenimahalle",
    "address": "Ragıp Tüzün Cad. No:158 Yenimahalle 06170",
    "name": "Akbank Yenimahalle Şubesi",
    "latitude": 39.96762182099649,
    "longitude": 32.81540795317488,
    "unitCode": 15,
    "quarter": "Yenimahalle",
    "provinceCode": 6
  },
  {
    "atmId": 51,
    "city": "Ankara",
    "district": "Yenimahalle",
    "address": "Kentkoop Mah. Batıkent Bulvarı Meydan AVM No:255/1 Batıkent Ankara",
    "name": "Akbank Batıkent Şubesi",
    "latitude": 39.96954717179656,
    "longitude": 32.71716750551899,
    "unitCode": 727,
    "quarter": "Batıkent",
    "provinceCode": 6
  },
  {
    "atmId": 52,
    "city": "Ankara",
    "district": "Yenimahalle",
    "address": "Mutlukent, 1933. Sk. No:3, 06800 Çankaya/Ankara",
    "name": "Akbank Ümitköy Şubesi",
    "latitude": 39.90549222848779,
    "longitude": 32.70492391818798,
    "unitCode": 744,
    "quarter": "Ümitköy",
    "provinceCode": 6
  },
  {
    "atmId": 53,
    "city": "Ankara",
    "district": "Yenimahalle",
    "address": "Bağdat Cad. Ömer Kemik İş Merkezi No:95 A Blok/1 Gimat Yenimahalle Ankara",
    "name": "Akbank Gimat Şubesi",
    "latitude": 39.96172659241387,
    "longitude": 32.772603663581656,
    "unitCode": 631,
    "quarter": "Gimat",
    "provinceCode": 6
  },
  {
    "atmId": 54,
    "city": "Ankara",
    "district": "Yenimahalle",
    "address": "Eminel İşmerkezi İvedik OSB Melih Gökçek Blv. No:18/1 No:11-23 Yenimahalle",
    "name": "Akbank İvedik Şubesi",
    "latitude": 39.99150777441065,
    "longitude": 32.746163983320706,
    "unitCode": 945,
    "quarter": "İvedik",
    "provinceCode": 6
  },
  {
    "atmId": 55,
    "city": "Ankara",
    "district": "Yenimahalle",
    "address": "Prof. Dr. Ahmet Taner Kışlalı Mah. S. Saltoğlu Cad. No 35/5 Ankara",
    "name": "Akbank Çayyolu Şubesi",
    "latitude": 39.87373590237636,
    "longitude": 32.68887706938226,
    "unitCode": 1215,
    "quarter": "Çayyolu",
    "provinceCode": 6
  },
  {
    "atmId": 56,
    "city": "Ankara",
    "district": "Yenimahalle",
    "address": "İvedik Organize Sanayi Bölgesi Ağaç İşleri Sitesi 21. Cadde(1354 Cd) No:114",
    "name": "Akbank İvedik Organize Sanayi Şubesi",
    "latitude": 39.99186883116653,
    "longitude": 32.75596845924066,
    "unitCode": 1325,
    "quarter": "İvedik",
    "provinceCode": 6
  },
  {
    "atmId": 57,
    "city": "Ankara",
    "district": "Yenimahalle",
    "address": "Yaşamkent Mah. 3222 Cad. No:55/12 Çayyolu Yenimahalle Ankara",
    "name": "Akbank Yaşamkent Şubesi",
    "latitude": 39.85623031450841,
    "longitude": 32.645626013452556,
    "unitCode": 1250,
    "quarter": "Yaşamkent",
    "provinceCode": 6
  }
]
